time,x,y,z,w0,w1,w2,w3,vx,vy,vz,roll,pitch,yaw
0,6.05645142277e-05,5.30053030873e-05,0,-2.20698969901e-06,0.00158457068491,0.000382441529364,0.999998671434,2.52653494775e-06,4.85078303074e-06,0.0,0,0,3.54749508415e-05
0,6.05848492227e-05,5.30183477669e-05,0,-2.20717664507e-06,0.00158457068605,0.000382561091126,0.999998671388,2.52655399384e-06,4.85079036058e-06,0.0,0,0,3.5475113422e-05
0,6.06051853168e-05,5.30313924718e-05,0,-2.20736359382e-06,0.00158457068718,0.000382680654647,0.999998671342,2.52657304014e-06,4.8507976901e-06,0.0,0,0,3.5475276003e-05
0,6.06261388056e-05,5.30448324972e-05,0,-2.20755621052e-06,0.00158457068834,0.000382803843146,0.999998671295,2.52659266484e-06,4.85080524372e-06,0.0,0,0,3.54754435264e-05
0,6.0646477131e-05,5.30578772535e-05,0,-2.20774316476e-06,0.00158457068947,0.000382923410241,0.999998671249,2.52661171236e-06,4.85081257463e-06,0.0,0,0,3.54756061213e-05
0,6.06668165555e-05,5.30709220351e-05,0,-2.20793012172e-06,0.00158457069061,0.000383042979095,0.999998671204,2.52663076005e-06,4.85081990487e-06,0.0,0,0,3.54757687153e-05
0,6.06877734757e-05,5.30843621395e-05,0,-2.20812274686e-06,0.00158457069177,0.000383166173088,0.999998671156,2.52665038582e-06,4.85082745821e-06,0.0,0,0,3.54759362455e-05
0,6.07081151317e-05,5.30974069724e-05,0,-2.2083097093e-06,0.0015845706929,0.000383285745516,0.999998671111,2.52666943424e-06,4.8508347875e-06,0.0,0,0,3.54760988397e-05
0,6.07284578869e-05,5.31104518306e-05,0,-2.20849667444e-06,0.00158457069404,0.000383405319703,0.999998671065,2.52668848377e-06,4.85084211999e-06,0.0,0,0,3.54762614554e-05
0,6.07494182388e-05,5.3123892014e-05,0,-2.20868930803e-06,0.0015845706952,0.000383528519192,0.999998671017,2.52670811185e-06,4.85084967684e-06,0.0,0,0,3.54764290156e-05
0,6.07697632257e-05,5.31369369236e-05,0,-2.20887627866e-06,0.00158457069633,0.000383648096953,0.999998670972,2.52672716146e-06,4.85085700617e-06,0.0,0,0,3.54765916186e-05
0,6.07901093117e-05,5.31499818584e-05,0,-2.209063252e-06,0.00158457069746,0.000383767676473,0.999998670926,2.52674621195e-06,4.85086433727e-06,0.0,0,0,3.54767542349e-05
0,6.08110731084e-05,5.31634221617e-05,0,-2.20925590561e-06,0.00158457069862,0.000383890881582,0.999998670878,2.52676567094e-06,4.85087906802e-06,0.0,0,0,3.5476948109e-05
0,6.083142145e-05,5.31764672233e-05,0,-2.20944289738e-06,0.00158457069975,0.000384010464907,0.999998670833,2.5267837557e-06,4.85089268861e-06,0.0,0,0,3.54771280568e-05
0,6.08517708919e-05,5.31895123131e-05,0,-2.20962989128e-06,0.00158457070087,0.000384130050001,0.999998670787,2.52680177781e-06,4.85090611391e-06,0.0,0,0,3.54773068172e-05
0,6.08727381335e-05,5.32029527355e-05,0,-2.20982255439e-06,0.00158457070203,0.000384253260729,0.999998670739,2.52682034073e-06,4.85091992883e-06,0.0,0,0,3.54774908921e-05
0,6.08930898077e-05,5.32159978771e-05,0,-2.21000955369e-06,0.00158457070316,0.000384372849399,0.999998670693,2.52683835697e-06,4.85093333384e-06,0.0,0,0,3.5477669534e-05
0,6.09134425813e-05,5.32290430442e-05,0,-2.2101965557e-06,0.00158457070428,0.000384492439831,0.999998670647,2.52685637416e-06,4.8509467407e-06,0.0,0,0,3.54778481895e-05
0,6.09344132557e-05,5.3242483546e-05,0,-2.21038922727e-06,0.00158457070544,0.000384615656056,0.9999986706,2.52687493654e-06,4.85096055014e-06,0.0,0,0,3.54780322389e-05
0,6.09547682618e-05,5.32555287647e-05,0,-2.21057623477e-06,0.00158457070656,0.000384735250063,0.999998670554,2.52689295459e-06,4.85097395756e-06,0.0,0,0,3.54782109029e-05
0,6.09751243674e-05,5.32685740088e-05,0,-2.21076324499e-06,0.00158457070769,0.00038485484583,0.999998670508,2.52691097171e-06,4.85098736023e-06,0.0,0,0,3.54783895409e-05
0,6.09960984748e-05,5.32820145899e-05,0,-2.210955925e-06,0.00158457070885,0.000384978067554,0.99999867046,2.5269295365e-06,4.85100117493e-06,0.0,0,0,3.54785736289e-05
0,6.1016456813e-05,5.32950598857e-05,0,-2.2111429407e-06,0.00158457070997,0.000385097666897,0.999998670414,2.52694755623e-06,4.85101458352e-06,0.0,0,0,3.54787523081e-05
0,6.10368162508e-05,5.33081052068e-05,0,-2.21132995912e-06,0.0015845707111,0.000385217268002,0.999998670368,2.52696557569e-06,4.85102799145e-06,0.0,0,0,3.54789309846e-05
0,6.10577937915e-05,5.33215458673e-05,0,-2.21152264758e-06,0.00158457071226,0.000385340495224,0.999998670321,2.52698414104e-06,4.85104180363e-06,0.0,0,0,3.54791150657e-05
0,6.10781554621e-05,5.333459124e-05,0,-2.21170967148e-06,0.00158457071338,0.000385460099904,0.999998670275,2.52700216131e-06,4.85105521102e-06,0.0,0,0,3.54792937445e-05
0,6.10985182323e-05,5.33476366382e-05,0,-2.21189669809e-06,0.00158457071451,0.000385579706345,0.999998670229,2.52702018274e-06,4.85106862097e-06,0.0,0,0,3.54794724412e-05
0,6.11194992065e-05,5.3361077378e-05,0,-2.21208939501e-06,0.00158457071566,0.000385702939067,0.999998670181,2.52703875111e-06,4.85108243934e-06,0.0,0,0,3.54796565677e-05
0,6.11398642097e-05,5.33741228278e-05,0,-2.21227642713e-06,0.00158457071679,0.000385822549084,0.999998670135,2.52705677207e-06,4.85109584573e-06,0.0,0,0,3.54798352479e-05
0,6.11602303128e-05,5.3387168303e-05,0,-2.21246346194e-06,0.00158457071791,0.000385942160863,0.999998670089,2.52707479515e-06,4.85110925878e-06,0.0,0,0,3.54800139699e-05
0,6.11812147208e-05,5.34006091223e-05,0,-2.21265616732e-06,0.00158457071907,0.000386065399084,0.999998670041,2.52709336277e-06,4.8511230708e-06,0.0,0,0,3.54801980657e-05
0,6.12015830569e-05,5.34136546492e-05,0,-2.21284320764e-06,0.0015845707202,0.00038618501444,0.999998669995,2.52711138666e-06,4.85113648334e-06,0.0,0,0,3.54803767903e-05
0,6.12219524928e-05,5.34267002014e-05,0,-2.21303025065e-06,0.00158457072132,0.000386304631557,0.999998669949,2.52712941022e-06,4.85114989379e-06,0.0,0,0,3.54805555047e-05
0,6.12429403349e-05,5.34401411001e-05,0,-2.21322296448e-06,0.00158457072248,0.000386427875277,0.999998669901,2.5271479807e-06,4.85116371143e-06,0.0,0,0,3.54807396424e-05
0,6.12633120041e-05,5.3453186704e-05,0,-2.21341001301e-06,0.00158457072361,0.000386547495971,0.999998669855,2.52716600522e-06,4.85117712291e-06,0.0,0,0,3.54809183676e-05
0,6.12836847733e-05,5.34662323334e-05,0,-2.21359706424e-06,0.00158457072473,0.000386667118426,0.999998669809,2.52718402974e-06,4.85119053333e-06,0.0,0,0,3.54810970888e-05
0,6.13046760497e-05,5.34796733114e-05,0,-2.21378978651e-06,0.00158457072589,0.000386790367647,0.999998669761,2.52720260145e-06,4.85120435165e-06,0.0,0,0,3.54812812381e-05
0,6.13250510523e-05,5.34927189923e-05,0,-2.21397684323e-06,0.00158457072702,0.000386909993679,0.999998669715,2.5272206268e-06,4.8512177628e-06,0.0,0,0,3.54814599685e-05
0,6.1345427155e-05,5.35057646988e-05,0,-2.21416390266e-06,0.00158457072814,0.000387029621473,0.999998669669,2.52723865438e-06,4.85123117953e-06,0.0,0,0,3.54816387357e-05
0,6.1366421866e-05,5.35192057563e-05,0,-2.21435663342e-06,0.0015845707293,0.000387152876194,0.999998669621,2.52725722627e-06,4.85124499547e-06,0.0,0,0,3.54818228776e-05
0,6.13868002022e-05,5.35322515143e-05,0,-2.21454369835e-06,0.00158457073043,0.000387272507565,0.999998669574,2.52727525365e-06,4.85125840865e-06,0.0,0,0,3.54820016286e-05
0,6.14071796386e-05,5.35452972978e-05,0,-2.21473076599e-06,0.00158457073155,0.000387392140698,0.999998669528,2.52729328146e-06,4.85127182321e-06,0.0,0,0,3.54821803896e-05
0,6.14281777844e-05,5.35587384347e-05,0,-2.21492350518e-06,0.00158457073271,0.00038751540092,0.99999866948,2.52731185617e-06,4.85128564367e-06,0.0,0,0,3.54823645676e-05
0,6.14485594546e-05,5.35717842699e-05,0,-2.21511057832e-06,0.00158457073383,0.000387635037631,0.999998669434,2.5273298845e-06,4.85129905788e-06,0.0,0,0,3.5482543331e-05
0,6.1468942225e-05,5.35848301305e-05,0,-2.21529765419e-06,0.00158457073496,0.000387754676103,0.999998669388,2.52734791388e-06,4.85131247318e-06,0.0,0,0,3.54827221047e-05
0,6.14899438058e-05,5.35982713468e-05,0,-2.21549040182e-06,0.00158457073612,0.000387877941827,0.99999866934,2.52736648965e-06,4.85132629375e-06,0.0,0,0,3.54829062907e-05
0,6.15103288101e-05,5.3611317259e-05,0,-2.21567748319e-06,0.00158457073724,0.000387997583877,0.999998669293,2.52738451991e-06,4.85133971088e-06,0.0,0,0,3.54830850792e-05
0,6.15307149148e-05,5.36243631967e-05,0,-2.21586456725e-06,0.00158457073837,0.000388117227689,0.999998669247,2.52740254978e-06,4.85135312477e-06,0.0,0,0,3.54832638513e-05
0,6.1551719931e-05,5.36378044925e-05,0,-2.21605732336e-06,0.00158457073953,0.000388240498915,0.999998669199,2.52742112786e-06,4.85136694936e-06,0.0,0,0,3.54834480694e-05
0,6.15721082697e-05,5.36508504819e-05,0,-2.21624441293e-06,0.00158457074065,0.000388360146305,0.999998669153,2.52743915901e-06,4.85138036514e-06,0.0,0,0,3.54836268577e-05
0,6.15924977088e-05,5.36638964967e-05,0,-2.21643150519e-06,0.00158457074178,0.000388479795457,0.999998669106,2.52745718982e-06,4.85139377901e-06,0.0,0,0,3.54838056368e-05
0,6.16135061607e-05,5.36773378719e-05,0,-2.21662426977e-06,0.00158457074294,0.000388603072185,0.999998669058,2.5274757686e-06,4.85140760261e-06,0.0,0,0,3.54839898564e-05
0,6.1633897834e-05,5.36903839383e-05,0,-2.21681136753e-06,0.00158457074406,0.000388722724916,0.999998669012,2.52749380141e-06,4.85142102065e-06,0.0,0,0,3.54841686654e-05
0,6.16542906079e-05,5.37034300302e-05,0,-2.21699846802e-06,0.00158457074519,0.000388842379409,0.999998668965,2.52751183449e-06,4.85143443832e-06,0.0,0,0,3.54843474752e-05
0,-0.000493576396368,5.30123089031e-05,0,-2.08532980457e-06,0.00158514997402,0.00038672963226,0.999998668867,-0.0313791399759,4.0608445926e-06,0.0,0,0,-0.000123239028021
0,-0.00205573904,5.17563399775e-05,0,-2.02676602541e-06,0.00158531794399,0.000382872975043,0.999998670085,-0.0623177905847,2.57429828074e-06,0.0,0,0,-0.000276820440054
0,-0.00463836915048,4.96768102766e-05,0,-2.00640784351e-06,0.00158553340611,0.000376474740557,0.999998672172,-0.0932142030033,1.50108378394e-06,0.0,0,0,-0.000422231492264
0,-0.00835965415644,4.66911032204e-05,0,-2.00497834475e-06,0.00158582966494,0.0003672804102,0.999998675122,-0.124601507685,3.28835220144e-08,0.0,0,0,-0.000563034819969
0,-0.0129735320706,4.30056984495e-05,0,-2.02564434446e-06,0.00158616259898,0.000355925194718,0.9999986787,-0.15381165039,-3.24936244274e-06,0.0,0,0,-0.000694340626326
0,-0.0185120207254,3.85874070264e-05,0,-2.04908319232e-06,0.00158652047337,0.000342308145582,0.999998682886,-0.180449132149,-9.2498624772e-06,0.0,0,0,-0.000818234873546
0,-0.0250638956135,3.34607319745e-05,0,-2.0689031361e-06,0.00158685224975,0.000326513192354,0.999998687642,-0.203314027,-1.43334685985e-05,0.0,0,0,-0.000905980433261
0,-0.0320626870313,2.82767927319e-05,0,-1.94700249118e-06,0.00158706709518,0.000310550531045,0.999998692385,-0.219184751057,-1.53050067887e-05,0.0,0,0,-0.000932720404915
0,-0.0393996221164,2.25018270802e-05,0,-7.90016193247e-06,0.00159624951614,0.000110664189679,0.999998719838,-0.223573517436,-6.66473473334e-05,0.0,0,0,-0.0239780495972
0,-0.0469667226881,1.95359485715e-05,0,-9.52999954677e-06,0.00160548892947,-0.00043701990815,0.999998615663,-0.222113095504,-0.000172598238332,0.0,0,0,-0.0361603981446
0,-0.0543084657886,3.00305706274e-05,0,-2.16114198721e-06,0.00158390234006,-0.00139123268958,0.999997777858,-0.22275580454,0.000124636179637,0.0,0,0,-0.0919841654178
0,-0.0616794829834,6.794320178e-05,0,5.57540729878e-06,0.00159996168811,-0.00376290055408,0.999991640301,-0.224829894637,4.29836632781e-05,0.0,0,0,-0.173994552934
0,-0.0694005796889,0.000144886145103,0,1.09614665949e-05,0.00158855375292,-0.00563630568373,0.999982854071,-0.232331427551,3.48726091187e-05,0.0,0,0,-0.0722575734782
0,-0.0772875470007,0.000240136559666,0,6.2969719178e-06,0.00159025842103,-0.00613578915625,0.999979911363,-0.243926736002,-6.03609962014e-05,0.0,0,0,-0.00150995393213
0,-0.0853419405175,0.000339031848316,0,7.51828436925e-06,0.00158630473251,-0.00615933179422,0.999979772902,-0.244268057638,8.16981207446e-06,0.0,0,0,-0.00141879153109
0,-0.093598118648,0.00044752472555,0,9.31913102704e-06,0.00158445829386,-0.00703249144034,0.999974016397,-0.242797488522,-8.17067952163e-06,0.0,0,0,-0.0553548217191
0,-0.102006724256,0.0005719612151,0,1.02048431268e-05,0.00158472526877,-0.00749895345851,0.999970626688,-0.260399526696,-3.5403818445e-05,0.0,0,0,-0.00298146532252
0,-0.11060409139,0.000701064716093,0,1.09181574365e-05,0.00158622238422,-0.00754805755378,0.999970254861,-0.26076664015,-6.0777362162e-06,0.0,0,0,-0.00293890917601
0,-0.119371373705,0.000848079332998,0,1.8261464488e-05,0.00158897954684,-0.00993576011492,0.999949376459,-0.251956920706,-1.5051822877e-05,0.0,0,0,-0.224439215136
0,-0.127686473859,0.0010527913789,0,2.05604742451e-05,0.00158942059781,-0.0150523217716,0.999885443903,-0.254765160805,-3.72658597626e-05,0.0,0,0,-0.349942206404
0,-0.136157141897,0.00135685866437,0,2.71618413971e-05,0.00159383879724,-0.0210553560435,0.999777040606,-0.257741986221,-0.000171561118478,0.0,0,0,-0.369447170939
0,-0.144729720835,0.0017774138232,0,4.28249200792e-05,0.00158601784685,-0.0277953012036,0.999612376846,-0.247168089356,0.000121278625503,0.0,0,0,-0.406100158536
0,-0.152937191113,0.00229265380479,0,4.16773436975e-05,0.00159459020363,-0.0349073642904,0.999389279242,-0.252160904913,-4.33918896931e-05,0.0,0,0,-0.458079712827
0,-0.1613194622,0.00294585931995,0,6.42237912848e-05,0.00159526413874,-0.0427670570643,0.999083795203,-0.255611588271,-4.11688094126e-05,0.0,0,0,-0.479539696239
0,-0.169715426103,0.00373205656627,0,7.15373656766e-05,0.00159088227153,-0.0493103246873,0.998782236454,-0.240963058406,2.06935678442e-05,0.0,0,0,-0.288784812534
0,-0.177839382648,0.00458170336388,0,8.41085832987e-05,0.00158365341569,-0.0546533332121,0.998504130255,-0.251550198052,-6.48394792167e-05,0.0,0,0,-0.319205737843
0,-0.186201535994,0.00554345691176,0,8.64074083721e-05,0.00159126092349,-0.0595615321149,0.998223363939,-0.257204729362,-4.15809168434e-05,0.0,0,0,-0.286671680427
0,-0.194772002277,0.00659995234101,0,9.34163386218e-05,0.00158536419453,-0.0619823960201,0.998075979311,-0.249381363468,-5.14426508857e-05,0.0,0,0,-0.0291325548249
0,-0.203197900807,0.00765775939593,0,9.94799411741e-05,0.00158500099,-0.062953878114,0.998015173785,-0.259758455506,2.44752319426e-06,0.0,0,0,-0.0706082890143
0,-0.211702833816,0.00874488424272,0,0.000103878558028,0.00158644681878,-0.0641002917454,0.997942195217,-0.259905081008,-1.02984347955e-05,0.0,0,0,-0.0686321668484
0,-0.220176049021,0.00985544107278,0,0.0001130896248,0.00159275130446,-0.0668228573482,0.997763577252,-0.242576364423,-6.29607330701e-05,0.0,0,0,-0.214769319609
0,-0.22814898248,0.0109616850409,0,0.000110913526101,0.00158211267918,-0.0703690491524,0.997519764987,-0.243973256405,0.000230728648592,0.0,0,0,-0.212294105278
0,-0.236126097265,0.0121232382967,0,0.000114331976285,0.00158006459037,-0.0738870040013,0.997265361358,-0.245618394894,7.35686894254e-05,0.0,0,0,-0.222950855809
0,-0.244424136178,0.0133808305706,0,0.000117499518911,0.00158351494982,-0.0758099461198,0.997121021112,-0.243162204546,-6.30649436985e-05,0.0,0,0,-0.0493710917095
0,-0.252552245253,0.0146324731117,0,0.00011632124177,0.00158619986536,-0.077114131195,0.997021003394,-0.254799119943,-3.51814937563e-05,0.0,0,0,-0.11972942204
0,-0.260972959259,0.015963205994,0,0.000118959418032,0.00159211113757,-0.0794855894749,0.996834736602,-0.259043207612,-4.19190085798e-05,0.0,0,0,-0.149161121864
0,-0.269584117665,0.0173746337599,0,0.000133484492256,0.00157348011031,-0.0825353551644,0.996586886072,-0.254445960904,0.000137395177221,0.0,0,0,-0.196140506942
0,-0.278062320251,0.0188259297558,0,0.000126144136737,0.00159603310614,-0.0873025048689,0.996180560646,-0.266459823145,-8.12273375232e-05,0.0,0,0,-0.369331729082
0,-0.286688183786,0.0204049378367,0,0.000146586647607,0.00157999806936,-0.0935463521191,0.995613661077,-0.264131890733,-1.40347520347e-05,0.0,0,0,-0.392565621665
0,-0.295223034907,0.0220776334192,0,0.000154432523824,0.0015772024626,-0.0991244892301,0.995073778279,-0.248286423452,2.75219348832e-05,0.0,0,0,-0.277226853816
0,-0.303367753126,0.0237631073969,0,0.000158646935252,0.00158715303756,-0.104724122091,0.994500032191,-0.256477277658,-5.32788420159e-05,0.0,0,0,-0.37541684942
0,-0.311640376961,0.0255795920383,0,0.000179471590009,0.00158745133184,-0.110869048251,0.99383373958,-0.256080414343,-7.74081832977e-05,0.0,0,0,-0.370307831691
0,-0.320000608862,0.0275246764374,0,0.000184183470831,0.00157738068314,-0.117317921575,0.993093139249,-0.250757442919,2.1582224696e-05,0.0,0,0,-0.372993560007
0,-0.327873411597,0.0294647695711,0,0.000193096089351,0.00157280378411,-0.123383362741,0.992357815912,-0.242276825387,1.4164097234e-05,0.0,0,0,-0.346984786063
0,-0.335609432829,0.031467900082,0,0.000207676060152,0.00157721402863,-0.129034901102,0.991638776755,-0.24240153749,2.19549010177e-05,0.0,0,0,-0.345536049559
0,-0.343612725143,0.0336216580313,0,0.000208168289304,0.00157119784476,-0.132031935223,0.99124419599,-0.241832454559,-2.41815358723e-05,0.0,0,0,-0.0458095897678
0,-0.351676361632,0.035813971681,0,0.000208935119457,0.00157172100846,-0.132608620212,0.99116721086,-0.257671538606,-1.26343861286e-05,0.0,0,0,-0.034409191324
0,-0.359948737084,0.0380746687335,0,0.000208511550874,0.0015732897646,-0.133392172191,0.991062061468,-0.260231156009,-7.38661104958e-06,0.0,0,0,-0.0485597396776
0,-0.368409445611,0.0404129208551,0,0.000209936085885,0.00157710924512,-0.135717705807,0.990746270739,-0.256630152855,-3.14495129725e-05,0.0,0,0,-0.158506712936
0,-0.376649032017,0.0427380761219,0,0.000212640350736,0.00158185631007,-0.138479254967,0.990364048448,-0.259695562664,-3.48054243973e-05,0.0,0,0,-0.170346203343
0,-0.384885957353,0.0451117128854,0,0.000219326989215,0.00158289014508,-0.141277116481,0.989968798858,-0.259916456393,-6.63298058307e-05,0.0,0,0,-0.1714469214
0,-0.393228743975,0.0475617113355,0,0.000222959941535,0.00156856119955,-0.142893865262,0.989736749431,-0.251510146909,0.000249372043951,0.0,0,0,-0.0397733147675
0,-0.40115308305,0.0499029048997,0,0.000231160968377,0.00157286266102,-0.143123858336,0.989703508048,-0.251683599956,4.77941699238e-05,0.0,0,0,0.00230113775808
0,-0.409216151722,0.0522846913599,0,0.000222404773587,0.00157858838958,-0.142628583153,0.989774997594,-0.257829654647,0.000124356686974,0.0,0,0,0.0601038847275
0,-0.41742867295,0.0546979707069,0,0.000224047309126,0.00156877202319,-0.142650416154,0.989771866406,-0.246648117068,7.82947605367e-05,0.0,0,0,-0.0677430193721
0,-0.425315317177,0.0570326243951,0,0.000224022810799,0.00156922657407,-0.144034510799,0.989571395626,-0.2524156561,2.86645722627e-05,0.0,0,0,-0.106236126488
0,-0.433414271285,0.0594608246573,0,0.000234354098816,0.00157288137746,-0.146187179836,0.989255669468,-0.258004861275,1.96770885695e-05,0.0,0,0,-0.142027808102
0,-0.441817510892,0.0620079118565,0,0.000231867122569,0.00156922123266,-0.146547136733,0.989202416342,-0.258211887527,2.99716153502e-05,0.0,0,0,0.0116255396396
0,-0.450018508616,0.0644922493151,0,0.000230733866092,0.00156820538396,-0.146494204137,0.989210258564,-0.259952601112,1.20684523332e-05,0.0,0,0,0.00299205276582
0,-0.458236229402,0.0669805352177,0,0.000230093654222,0.00156868637393,-0.146445354058,0.989217491028,-0.260415786839,4.55344774944e-06,0.0,0,0,0.00322383617111
0,-0.466667682931,0.0695446100161,0,0.000230934773702,0.00157233470113,-0.148065056192,0.988976346314,-0.258314583588,-3.26194849915e-05,0.0,0,0,-0.118296168411
0,-0.47486598858,0.0720736353728,0,0.000233116473034,0.0015771089924,-0.150098861887,0.988669707255,-0.26018823874,-3.86106543971e-05,0.0,0,0,-0.125619039476
0,-0.483062356303,0.0746385023323,0,0.000238499560758,0.00158001085807,-0.152163016695,0.988354118236,-0.260350213495,-7.47749689845e-05,0.0,0,0,-0.126919014896
0,-0.491410795338,0.0772861505562,0,0.000247898537505,0.00157539848028,-0.153002308242,0.988224544493,-0.255038036338,9.05826794638e-05,0.0,0,0,0.00655991312862
0,-0.499467501912,0.0798464117045,0,0.000242215755285,0.00158342094261,-0.153118033393,0.988206608944,-0.256347347013,0.000174197390872,0.0,0,0,-0.00489896502042
0,-0.507567289874,0.0824190933965,0,0.000239078773051,0.00158172223541,-0.152906525335,0.988239361443,-0.25810753506,-3.50181782038e-05,0.0,0,0,0.0284123615326
0,-0.515790677003,0.08502799374,0,0.00024281530491,0.00157139458704,-0.15341601621,0.98816041093,-0.251489303825,8.83722752135e-05,0.0,0,0,-0.0795385734112
0,-0.523807481953,0.0875930820242,0,0.000250871693352,0.00157703044174,-0.154996932399,0.987913660694,-0.257986155782,3.7505054121e-05,0.0,0,0,-0.11486038479
0,-0.531909160153,0.0902174112933,0,0.000250017142044,0.00156902581966,-0.156849711035,0.987621204611,-0.25820444299,2.18211182623e-05,0.0,0,0,-0.113531935502
0,-0.540257634675,0.0929404151543,0,0.000247377383273,0.00156713908889,-0.156537983499,0.987670665051,-0.25836880955,2.91789060843e-05,0.0,0,0,0.0617473770924
0,-0.548415010965,0.0955851551267,0,0.000245443343438,0.00156572198891,-0.155656116175,0.98781003324,-0.260147430362,2.12292766689e-05,0.0,0,0,0.0540512426233
0,-0.556593712212,0.0982204322651,0,0.000243528107085,0.0015657216024,-0.15477288164,0.987948806527,-0.260615541339,1.44362252648e-05,0.0,0,0,0.0543615134998
0,-0.56503324733,0.100927802653,0,0.000242093060732,0.00156881089629,-0.154373054596,0.988011356331,-0.260867315293,3.72766864574e-05,0.0,0,0,0.0224570803916
0,-0.573236921086,0.103553195598,0,0.000240717194289,0.00157315967222,-0.154012959216,0.98806754608,-0.261105241912,3.41048233401e-05,0.0,0,0,0.0214218981626
0,-0.581444604235,0.106173452557,0,0.000240437006271,0.00157811133005,-0.153680204844,0.988119348254,-0.261015180668,3.4259166809e-05,0.0,0,0,0.0194838683492
0,-0.589905515097,0.108863741671,0,0.000239107203133,0.00158161241651,-0.1529330872,0.98823525143,-0.261112243148,-4.01760798588e-05,0.0,0,0,0.0455117476893
0,-0.598102596437,0.111456614177,0,0.000240314282892,0.00158216435033,-0.152225896631,0.988344431562,-0.259860204212,4.08546697473e-05,0.0,0,0,0.0408426913649
0,-0.606266165104,0.114025626898,0,0.000241161738324,0.00158112191867,-0.151504885612,0.988455214732,-0.258682857446,3.67323174989e-05,0.0,0,0,0.0476603142101
0,-0.614735331325,0.116671047773,0,0.000236985154843,0.0015669155415,-0.149539112921,0.988754540986,-0.263163965538,4.26021354052e-05,0.0,0,0,0.196142638181
0,-0.623002127061,0.119194112296,0,0.00023488254157,0.00157876194258,-0.145477178222,0.989360320084,-0.260736316906,5.22912585285e-05,0.0,0,0,0.263461478738
0,-0.631263788157,0.121637916949,0,0.000226673052599,0.00157506239614,-0.141174959192,0.98998338304,-0.261231586728,2.79585511668e-05,0.0,0,0,0.264092815034
0,-0.639823438457,0.124080092813,0,0.000216505597189,0.00157291511311,-0.135841981957,0.990729244043,-0.262181212906,2.76802858817e-05,0.0,0,0,0.32166539323
0,-0.648175661264,0.126365693638,0,0.000206217378137,0.0015729075344,-0.130576902884,0.99143691472,-0.262615851867,1.68997999281e-05,0.0,0,0,0.322301533913
0,-0.656565994896,0.128565736607,0,0.000195897198776,0.00157527743195,-0.12529867057,0.992117797078,-0.26307176301,6.85512187983e-06,0.0,0,0,0.322884793994
0,-0.665238044573,0.130729745785,0,0.000182540878631,0.00158030786857,-0.118651639354,0.992934669444,-0.263208054256,-5.09297596292e-06,0.0,0,0,0.402808888324
0,-0.673693824989,0.132716526171,0,0.000175437114369,0.00157544745004,-0.111500569322,0.993763105689,-0.264123059283,8.74387939819e-05,0.0,0,0,0.442941453799
0,-0.682187679472,0.134582406866,0,0.000158018904436,0.00158756225598,-0.104311821695,0.994543361815,-0.262471426049,9.59441754359e-05,0.0,0,0,0.430391604454
0,-0.691062536696,0.136405701704,0,0.000155326237003,0.00157923067528,-0.0988754764914,0.995098548915,-0.266507190201,7.11177971444e-05,0.0,0,0,0.247459624725
0,-0.699550334597,0.138072400476,0,0.000145171693057,0.00158878133208,-0.0947199433371,0.995502680576,-0.261799631124,2.38683338648e-05,0.0,0,0,0.253891576977
0,-0.70804443043,0.139666834681,0,0.000142412888114,0.00158434655559,-0.0905352612049,0.995891980108,-0.261999511128,4.34382098679e-05,0.0,0,0,0.255578205935
0,-0.716664909021,0.141219669775,0,0.000138488673002,0.00158063176383,-0.0880185586687,0.99611757125,-0.256529933941,0.000111902502219,0.0,0,0,0.0943069511014
0,-0.725101998617,0.142709517403,0,0.000136976744391,0.00158138108367,-0.0861723201877,0.996278982868,-0.259845342119,0.000128114327664,0.0,0,0,0.116156763914
0,-0.733530139907,0.144162235047,0,0.000140325871466,0.00158995743858,-0.0841619257497,0.996450812935,-0.259540705265,-4.63442405004e-05,0.0,0,0,0.120337132686
0,-0.742213450442,0.145624432906,0,0.000135020194292,0.0015865791391,-0.0827097683881,0.996572405172,-0.260077475121,-2.0547625669e-05,0.0,0,0,0.0779567302336
0,-0.750685672956,0.147028214598,0,0.000130735571541,0.00158601289087,-0.0814226227786,0.996678395457,-0.260478349828,1.61742847697e-05,0.0,0,0,0.0778618699759
0,-0.759171798133,0.148412853048,0,0.000124878077896,0.0015867237378,-0.0801526835877,0.996781327086,-0.260612687164,1.01827514717e-05,0.0,0,0,0.0765213874497
0,-0.767918652097,0.149817833117,0,0.000118441344507,0.00159086378362,-0.078882545736,0.996882640586,-0.260425784842,5.42156687528e-05,0.0,0,0,0.0730041167356
0,-0.776398275061,0.151159257149,0,0.000114367295064,0.00159305227273,-0.0777294404795,0.996973210867,-0.259878781518,4.55858599502e-05,0.0,0,0,0.067276898357
0,-0.784867858423,0.152478585135,0,0.000112971397397,0.0015918082188,-0.0766531433294,0.99705654253,-0.259733454805,-3.33244593001e-05,0.0,0,0,0.0640036213923
0,-0.79359740614,0.153817139785,0,0.000113891297285,0.00158802926742,-0.0755029972716,0.997144303797,-0.259809064801,-2.40108813993e-05,0.0,0,0,0.0668751298854
0,-0.802081800644,0.15509918842,0,0.000114127766048,0.00158647595527,-0.0744017868037,0.997227077545,-0.260284432507,1.51445866319e-05,0.0,0,0,0.0673514129151
0,-0.810582503713,0.15636489821,0,0.000115475376755,0.00158504604737,-0.0732870921439,0.997309619135,-0.260570357525,8.81791381123e-06,0.0,0,0,0.0681526084107
0,-0.819349641849,0.157649634399,0,0.000116285398367,0.00158581644921,-0.072112025079,0.997395271446,-0.260639453414,1.25623097129e-05,0.0,0,0,0.0707604264527
0,-0.827858654678,0.158876611367,0,0.00011603423677,0.0015879550967,-0.070901035933,0.997482084069,-0.260239761783,4.56657368794e-05,0.0,0,0,0.0773174538109
0,-0.83633854268,0.16007733862,0,0.000115706972834,0.00159067371983,-0.0695109149816,0.997579916131,-0.258899211593,8.48239983652e-05,0.0,0,0,0.0901266846168
0,-0.845133286843,0.161286043947,0,0.000108401125742,0.00159013383279,-0.0667260404473,0.997770061312,-0.260444053805,-1.99096167502e-05,0.0,0,0,0.18622304296
0,-0.853681938011,0.162406766013,0,0.000102995733506,0.00159204019284,-0.0636672364275,0.997969908267,-0.261386098846,-8.02833767655e-06,0.0,0,0,0.185816838448
0,-0.862239470344,0.163476155448,0,9.47790859835e-05,0.00159093756369,-0.0606213556464,0.998159561981,-0.261251329166,3.91567300868e-05,0.0,0,0,0.1836795078
0,-0.870906693888,0.164501053875,0,8.77409970957e-05,0.001585261199,-0.0562361992706,0.998416230407,-0.254462741197,8.84111944814e-05,0.0,0,0,0.281223097894
0,-0.879237531835,0.165403858934,0,8.14779432254e-05,0.00158256650619,-0.0515154997586,0.998670937862,-0.254985743897,-7.13994785617e-06,0.0,0,0,0.293462800261
0,-0.887709926478,0.166236569225,0,6.71579909441e-05,0.00159139305472,-0.0463685254631,0.998923131579,-0.260775219978,1.13699792649e-05,0.0,0,0,0.329376323346
0,-0.896557529162,0.167016486523,0,6.08908002567e-05,0.00158878773798,-0.0417376860492,0.999127338035,-0.261618440174,2.52892798767e-05,0.0,0,0,0.267893526703
0,-0.905171102628,0.167698706049,0,5.67952551655e-05,0.00158540622037,-0.0373150893312,0.999302290285,-0.26204958789,3.60311951236e-05,0.0,0,0,0.268565150829
0,-0.913805678876,0.168305911164,0,5.11224569639e-05,0.00158505840087,-0.0328817504266,0.999457990846,-0.262526140987,3.54943684641e-05,0.0,0,0,0.269159938717
0,-0.92273089567,0.168847681329,0,4.46277418486e-05,0.00158707169077,-0.0277412459355,0.999613876697,-0.263280056059,2.20092238043e-05,0.0,0,0,0.305160605785
0,-0.931413047094,0.169284975147,0,3.71428519491e-05,0.00159005051931,-0.0226911532619,0.999741257488,-0.263555434654,6.18980779473e-06,0.0,0,0,0.307205216811
0,-0.940105565251,0.169634116958,0,2.82742360718e-05,0.00159368514085,-0.0176093952586,0.999843672064,-0.263629732515,-2.32607908371e-06,0.0,0,0,0.308527048448
0,-0.949066938241,0.169899849508,0,1.94944611642e-05,0.00159622566551,-0.0119984530199,0.999926741721,-0.263317877247,2.31712853206e-05,0.0,0,0,0.331464569361
0,-0.957748288217,0.170072636342,0,8.86821186849e-06,0.00159833718795,-0.00655310593116,0.999977250762,-0.262583778393,0.000955958933497,0.0,0,0,0.328054142064
0,-0.96636549092,0.170167486201,0,-1.91851585027e-06,0.00160315619188,-0.00120596229397,0.999997987769,-0.260218749948,-0.000186053707434,0.0,0,0,0.321333883848
0,-0.975230198757,0.170140748954,0,-1.10674076064e-05,0.00160244143046,0.00376424725299,0.999991631216,-0.261048836249,7.69929407994e-06,0.0,0,0,0.287854754682
0,-0.983843167856,0.17003477138,0,-1.58094874638e-05,0.00159439383574,0.00851451922416,0.999962479606,-0.261091563963,3.77648840286e-05,0.0,0,0,0.288309449856
0,-0.992462640362,0.16984672869,0,-2.231936429e-05,0.00158913071359,0.0132815316922,0.999910533539,-0.261440623572,3.45919307769e-05,0.0,0,0,0.28922877542
0,-1.00135216081,0.169567848435,0,-2.97018444754e-05,0.00158586979177,0.018026608814,0.999836249348,-0.2617887967,2.60430150281e-05,0.0,0,0,0.279124433175
0,-1.00999171988,0.169215702549,0,-3.73313562201e-05,0.00158447952714,0.0226357850308,0.999742521486,-0.262239674087,1.75566018396e-05,0.0,0,0,0.279725160066
0,-1.01864246619,0.16878277709,0,-4.53061267246e-05,0.00158462765978,0.0272539254801,0.999627285766,-0.262691790636,7.92146098504e-06,0.0,0,0,0.280267180603
0,-1.02755004665,0.168260128517,0,-5.29153449856e-05,0.00158678199347,0.0311199480837,0.999514396172,-0.262584285847,-5.74000358313e-06,0.0,0,0,0.223244685825
0,-1.03619845557,0.167687799023,0,-5.88912967146e-05,0.00158832438055,0.0347881110346,0.999393446591,-0.262681234229,-8.30468684926e-06,0.0,0,0,0.221541203953
0,-1.04484068039,0.16705289857,0,-6.41314319239e-05,0.00159169394112,0.0384132898911,0.999260667472,-0.262378013123,3.57054833626e-05,0.0,0,0,0.217703701036
0,-1.05356597741,0.166348953847,0,-7.33333576552e-05,0.00158561945522,0.0430457568577,0.999071840885,-0.25298056494,0.000372987640133,0.0,0,0,0.317493713411
0,-1.06201769133,0.165575383852,0,-7.53953764517e-05,0.00158968208877,0.0477714460856,0.998857024887,-0.259880102425,9.96249579225e-06,0.0,0,0,0.287760171889
0,-1.07060435764,0.164708484881,0,-8.8374421544e-05,0.0015943696798,0.0527189901403,0.998608110449,-0.262301880562,8.20157413981e-05,0.0,0,0,0.303473919664
0,-1.07950052465,0.163719637766,0,-8.72223857202e-05,0.00159921461308,0.0582347903506,0.998301629818,-0.263321887522,-1.94302113026e-06,0.0,0,0,0.32959705594
0,-1.08810273622,0.162663520918,0,-9.88845539056e-05,0.00158915144531,0.0637834172798,0.997962494536,-0.261769238057,3.26796068911e-05,0.0,0,0,0.344781360209
0,-1.09667678789,0.16151251295,0,-0.000105870153521,0.00159091102786,0.0694416853271,0.997584738322,-0.262287732211,2.2252366107e-05,0.0,0,0,0.344724428054
0,-1.10551165814,0.160218710236,0,-0.000118289615413,0.00158682938814,0.0757583568161,0.997124936682,-0.262801223166,2.05665856581e-05,0.0,0,0,0.37524886837
0,-1.11408206189,0.158853102912,0,-0.000130796279228,0.00158472966633,0.0819396558549,0.996636023994,-0.263134143378,1.00366976514e-05,0.0,0,0,0.376119705924
0,-1.122641602,0.157380206976,0,-0.000143528693173,0.00158345331077,0.0881098380181,0.99610949625,-0.263208256251,4.09412197077e-05,0.0,0,0,0.374513823744
0,-1.13142774648,0.155761859676,0,-0.0001532179976,0.00158333854815,0.093633070226,0.99560550306,-0.26214178872,0.00013350272153,0.0,0,0,0.316700306254
0,-1.13989379528,0.154111960162,0,-0.000166274133407,0.00158682634533,0.0987355959247,0.995112424017,-0.260361592361,8.28007254799e-05,0.0,0,0,0.303251830238
0,-1.14831380868,0.152378782974,0,-0.0001778210359,0.00158909762946,0.103721945103,0.994605047872,-0.261229460213,3.38089183374e-05,0.0,0,0,0.307590190113
0,-1.15700779389,0.15049412965,0,-0.000182237773715,0.00158361171653,0.109292519025,0.994008352203,-0.262265119881,3.64841629615e-05,0.0,0,0,0.332871428112
0,-1.16545058542,0.1485654347,0,-0.000185493794428,0.00157822779172,0.114754497027,0.993392611308,-0.26262614472,2.86447598664e-05,0.0,0,0,0.333384076385
0,-1.17388560316,0.146540969643,0,-0.000190986149323,0.00157664569955,0.120224352968,0.992745477283,-0.263066770695,3.48526380267e-05,0.0,0,0,0.334369722194
0,-1.18256367853,0.14435461477,0,-0.000198325069354,0.00157648039469,0.125891044293,0.992042801669,-0.263337315896,2.52113843942e-05,0.0,0,0,0.337129806801
0,-1.19096909401,0.142135317513,0,-0.000207263272364,0.0015764278392,0.131430026837,0.991324175012,-0.263531483981,1.42152620467e-05,0.0,0,0,0.339829836843
0,-1.19935418804,0.139821406435,0,-0.000217018785207,0.00157768231709,0.137007856484,0.990568680649,-0.263633179602,6.83171816106e-05,0.0,0,0,0.342303726887
0,-1.20793951752,0.137346969596,0,-0.000226700936208,0.00157898426766,0.142660569816,0.989770386118,-0.26237747386,7.22683437871e-05,0.0,0,0,0.337892187003
0,-1.21622591606,0.134857159406,0,-0.000230425349972,0.00158652830961,0.148152426786,0.988963239089,-0.262510763984,1.90281471026e-05,0.0,0,0,0.331047487766
0,-1.22447768206,0.132281753495,0,-0.000248208469138,0.00158081195122,0.153510968835,0.988145648107,-0.26100720562,6.50759535295e-05,0.0,0,0,0.322795670777
0,-1.23284866495,0.129561233253,0,-0.000258166321976,0.00157703660547,0.159420151324,0.987209532803,-0.259654878507,1.56267236717e-05,0.0,0,0,0.362768995869
0,-1.24101152533,0.12679775506,0,-0.00027034847667,0.0015736799038,0.165470793893,0.986213398211,-0.261899441873,3.59041880748e-05,0.0,0,0,0.375401541072
0,-1.24916762546,0.1239244778,0,-0.000275960888957,0.0015655803342,0.171578256965,0.985169211121,-0.262218551713,3.91894301997e-05,0.0,0,0,0.375815710109
0,-1.25752114577,0.120880689852,0,-0.000280003222759,0.00156114313307,0.175293347083,0.984514970378,-0.262171963866,3.52533728908e-05,0.0,0,0,0.155888788882
0,-1.2656118332,0.117873410133,0,-0.000285014642798,0.00155886114456,0.178744970999,0.983894163038,-0.261685046597,2.02949348735e-05,0.0,0,0,0.218102627762
0,-1.27369163637,0.114803462749,0,-0.000290615547939,0.00155807082752,0.182289437984,0.98324363652,-0.262145021864,7.12786937807e-06,0.0,0,0,0.218706449714
0,-1.2820530128,0.11154922563,0,-0.000298385484294,0.00155873766384,0.18668233087,0.98241904941,-0.264472400631,-6.06039536449e-06,0.0,0,0,0.266953174547
0,-1.29013706994,0.10831158687,0,-0.000308732718215,0.00156093020679,0.191886280306,0.981415876992,-0.263814430531,-8.84110587104e-06,0.0,0,0,0.327265212585
0,-1.29818191623,0.104988169157,0,-0.00031661775158,0.0015615665917,0.197167564211,0.980368508718,-0.263660003145,6.25084668227e-06,0.0,0,0,0.325332200204
0,-1.30641630339,0.101480268456,0,-0.000326189387977,0.00156376797702,0.202739538482,0.979231396436,-0.26276096184,-3.42069882064e-06,0.0,0,0,0.331974524952
0,-1.31431901251,0.0980108843457,0,-0.000339058507724,0.00156542703115,0.207994441032,0.978128696531,-0.261057857748,-9.01370999903e-05,0.0,0,0,0.325322779802
0,-1.32219146226,0.0944542446323,0,-0.000344621910855,0.00156374991277,0.213343609037,0.97697591598,-0.262084058595,6.60597036769e-05,0.0,0,0,0.333780203485
0,-1.33005369731,0.0908012542463,0,-0.000350347721153,0.00154976676234,0.217919164073,0.975965528802,-0.250022428959,0.000104776498938,0.0,0,0,0.252745815108
0,-1.33749954414,0.087257425226,0,-0.000353531201456,0.00155196140584,0.222828618702,0.974856334605,-0.248187176254,6.8889252931e-05,0.0,0,0,0.327098689188
0,-1.34487146178,0.0836519364664,0,-0.000359939148828,0.00155158712891,0.228056267166,0.973646651526,-0.24884439082,2.46637828879e-05,0.0,0,0,0.325837073053
0,-1.35272242485,0.0797013139307,0,-0.00036994397049,0.0015457163191,0.23389212824,0.972261254113,-0.262660763905,2.91897562764e-05,0.0,0,0,0.362742259284
0,-1.36042111536,0.0757101984067,0,-0.000381111377993,0.00154113670793,0.239710181714,0.970843194566,-0.262958366992,1.5504469762e-05,0.0,0,0,0.363223075127
0,-1.36808203573,0.0716211620233,0,-0.000393136895574,0.00153898635483,0.245523116599,0.969389434737,-0.263277632398,1.8510164069e-05,0.0,0,0,0.362889961444
0,-1.37588220235,0.0673505140417,0,-0.000393005792569,0.00153089801097,0.249915431325,0.968266378164,-0.257279812513,7.95496805847e-05,0.0,0,0,0.222770057619
0,-1.38331504997,0.0631981364008,0,-0.000405232668844,0.00153346310777,0.25403620837,0.967193408329,-0.259185868221,0.000100205126213,0.0,0,0,0.265693039394
0,-1.39072980383,0.0589748216683,0,-0.00041965206177,0.00153882627132,0.258199320019,0.966090351389,-0.258130088274,2.02971030019e-05,0.0,0,0,0.258164229423
0,-1.39815280403,0.0546557496826,0,-0.000430578175604,0.0015404051239,0.262494417173,0.964932185548,-0.25098915988,7.50191773177e-06,0.0,0,0,0.256025695922
0,-1.4053609592,0.0503737557182,0,-0.00042307030965,0.0015274903865,0.26735091006,0.963597934138,-0.259241938412,8.33598842288e-05,0.0,0,0,0.340359852414
0,-1.41275366606,0.0458691204161,0,-0.000434681247691,0.00153026191519,0.273045280881,0.961999866912,-0.263101343762,5.86505018434e-05,0.0,0,0,0.362870042363
0,-1.42031755856,0.0411441913939,0,-0.000440253582669,0.00152807906259,0.277934472881,0.960598719516,-0.26259865052,-6.99430953975e-06,0.0,0,0,0.292201969816
0,-1.42762273463,0.0364815605744,0,-0.000447451610475,0.00152554129876,0.282587491367,0.959240210914,-0.262645499665,0.000103522641152,0.0,0,0,0.295427856065
0,-1.43487537831,0.0317527386703,0,-0.00045496037667,0.00152600707285,0.287319099242,0.957833596991,-0.261920905111,2.56870213744e-05,0.0,0,0,0.304293218463
0,-1.44208023772,0.0269545177698,0,-0.000465370992469,0.00151818493817,0.291581490761,0.956544673703,-0.250652299986,8.511443677e-06,0.0,0,0,0.263670942313
0,-1.44888123149,0.0223383718377,0,-0.000469688487416,0.00152741521533,0.295910293613,0.955214397153,-0.249126372541,6.48482921009e-05,0.0,0,0,0.273933929964
0,-1.45563774421,0.0176628358141,0,-0.000478830097125,0.00152164176798,0.300223499362,0.953867551476,-0.248796589991,6.74158158286e-05,0.0,0,0,0.272551624348
0,-1.46267067837,0.0127087409412,0,-0.000487107980506,0.00151655276461,0.304048652462,0.95265517357,-0.254026363193,0.000118240825371,0.0,0,0,0.219989736903
0,-1.46946259865,0.00784268201478,0,-0.000485701729898,0.0015091217199,0.307849107189,0.951433872557,-0.254868199237,0.000127317473735,0.0,0,0,0.254003247304
0,-1.47634721794,0.0028186785237,0,-0.000506792156019,0.00151351018806,0.312163296269,0.950027120092,-0.261071998999,5.23833573253e-06,0.0,0,0,0.291913965971
0,-1.48348033539,-0.0024921679239,0,-0.000508377999619,0.00150587368001,0.316897273127,0.948458534772,-0.26174210248,3.19443094381e-05,0.0,0,0,0.293498271882
0,-1.49035376608,-0.00770723721241,0,-0.000510951949426,0.00150141337762,0.320711319756,0.947175661673,-0.261705702629,1.91058105834e-05,0.0,0,0,0.240444149322
0,-1.49719853336,-0.0129866776389,0,-0.00051575045013,0.00149902483742,0.324471182686,0.945894253356,-0.262171219794,1.57955465994e-05,0.0,0,0,0.241108231905
0,-1.5042815154,-0.0185569607605,0,-0.000523867245802,0.00149740421675,0.329887241084,0.944019010144,-0.266983042247,4.75553303709e-05,0.0,0,0,0.359658580759
0,-1.51106883918,-0.0240209294279,0,-0.000532359082317,0.00149769489996,0.334806991308,0.942285387807,-0.263648689151,9.11842678233e-06,0.0,0,0,0.312814794608
0,-1.51779113152,-0.0295480925547,0,-0.000542197715509,0.00149809718744,0.339676184919,0.940541094863,-0.263716896238,-3.98083630651e-06,0.0,0,0,0.313721763397
0,-1.52468856357,-0.0353339347942,0,-0.000547960392232,0.00149631195657,0.344045593559,0.938951591054,-0.265777855408,4.69557641752e-05,0.0,0,0,0.265754598366
0,-1.53132470546,-0.0409924708326,0,-0.000566953026051,0.00150365933946,0.347787955056,0.937571840389,-0.263096759955,0.000380053718741,0.0,0,0,0.227425646201
0,-1.53785621128,-0.0466413788795,0,-0.000564126639158,0.00149876011961,0.351243535138,0.936282764181,-0.260058097374,-6.00472861847e-05,0.0,0,0,0.217500875649
0,-1.54447115537,-0.0524588361985,0,-0.000569411089118,0.00150016935558,0.354164940409,0.935181597471,-0.259983062931,-2.08283897707e-05,0.0,0,0,0.172491008242
0,-1.5508821474,-0.0581601881143,0,-0.000570748957297,0.00149041448743,0.356844002322,0.934162625519,-0.259968247863,3.3869483119e-05,0.0,0,0,0.174259054771
0,-1.55726423626,-0.0639019631694,0,-0.00057257583829,0.00148349946139,0.359534223658,0.933130544675,-0.260321257596,3.20261311068e-05,0.0,0,0,0.174914335927
0,-1.56381740487,-0.0698746708021,0,-0.000576676617791,0.00147805955374,0.36287948481,0.931834729063,-0.261108754754,2.7576915238e-05,0.0,0,0,0.213421034034
0,-1.57014949424,-0.0757297837375,0,-0.000581631830431,0.00147444893916,0.366162776097,0.930549466233,-0.261558303873,1.79496861756e-05,0.0,0,0,0.213985023824
0,-1.57645075639,-0.081639879491,0,-0.000587477204897,0.00147213873704,0.369449724737,0.929249368345,-0.262014205696,9.20648333982e-06,0.0,0,0,0.214482701005
0,-1.58295917324,-0.0878283407144,0,-0.000594176745646,0.00147177506465,0.372446808492,0.928052183703,-0.264571726733,-5.58869980621e-06,0.0,0,0,0.188440212567
0,-1.58920228685,-0.0938318145299,0,-0.000597534122022,0.00147172614309,0.374596118515,0.927186726053,-0.26195583468,-1.19720802361e-06,0.0,0,0,0.134539425989
0,-1.59540659782,-0.0998509822455,0,-0.000602868699356,0.00147422589322,0.376635306034,0.926360248206,-0.261879031061,1.10577424786e-06,0.0,0,0,0.131932411415
0,-1.60179624043,-0.106099936285,0,-0.000611288609638,0.00147755595565,0.378223385848,0.925712975793,-0.262183447559,-5.50290690418e-05,0.0,0,0,0.0935469088555
0,-1.60797098263,-0.112169754238,0,-0.00060102770115,0.0014748597788,0.37912046157,0.92534595648,-0.26003561085,-3.77458320669e-05,0.0,0,0,0.0413977986986
0,-1.61406530684,-0.118178515084,0,-0.000607957941811,0.00147888151725,0.379775895753,0.925077138568,-0.259130861582,-4.67883056614e-05,0.0,0,0,0.0453556064609
0,-1.62041316683,-0.124461804894,0,-0.00060376222883,0.0014648233812,0.381465734469,0.924381622053,-0.266019439261,6.04764743604e-05,0.0,0,0,0.17874014914
0,-1.62650755422,-0.130559464346,0,-0.000610338185816,0.00147438898976,0.384176850865,0.92325814425,-0.259966518792,1.6673757186e-05,0.0,0,0,0.186186506265
0,-1.63254528813,-0.136673827405,0,-0.000613670884453,0.00146944203814,0.386996771406,0.922079694533,-0.260508584286,2.62414453845e-05,0.0,0,0,0.186039179333
0,-1.6387069572,-0.142972591484,0,-0.000615271023926,0.0014635978836,0.388026007986,0.921647056334,-0.261797095353,2.0030757199e-05,0.0,0,0,0.0135690093269
0,-1.64471327921,-0.149109632601,0,-0.000615464294193,0.00146172470486,0.387152895802,0.922014164662,-0.260104019726,1.52897405029e-06,0.0,0,0,-0.0672801100539
0,-1.65072439124,-0.155225342392,0,-0.000615858934094,0.00146278555575,0.386183166938,0.922420751366,-0.260033307386,-9.45187697654e-06,0.0,0,0,-0.0635618679732
0,-1.65691014308,-0.161514981779,0,-0.000616984777309,0.00146166705985,0.387499157827,0.921868692137,-0.262010109064,6.08063058957e-05,0.0,0,0,0.160601005053
0,-1.66294419543,-0.167714304213,0,-0.000623123700006,0.00146182020315,0.390320127099,0.920677833545,-0.262158242073,1.00686875293e-05,0.0,0,0,0.185469894102
0,-1.66893588895,-0.173944663217,0,-0.00063321943739,0.00146440581228,0.393100278555,0.919494222684,-0.261567807746,6.52949203674e-05,0.0,0,0,0.179850616095
0,-1.67514306313,-0.180470827887,0,-0.000628056246437,0.00146037526056,0.394957742125,0.918697912692,-0.264204497903,1.54611574121e-06,0.0,0,0,0.092805099928
0,-1.68105183062,-0.186724373345,0,-0.000638907714633,0.00146462179725,0.396382474237,0.918084081551,-0.26020301093,-7.99578246953e-05,0.0,0,0,0.0927752787034
0,-1.68692889993,-0.192983769151,0,-0.000637409249794,0.00146401715204,0.397788961962,0.917475553955,-0.260272184233,1.35327425153e-05,0.0,0,0,0.0948785541806
0,-1.69294262817,-0.199421254654,0,-0.000636086594024,0.00145758279227,0.398871150103,0.917005603288,-0.259069763132,0.000119929861556,0.0,0,0,0.0696017867857
0,-1.6987580681,-0.205673409402,0,-0.000633909341279,0.00146757007855,0.399976666522,0.916523928021,-0.259476107467,-3.11473454776e-05,0.0,0,0,0.0685025988898
0,-1.70457317263,-0.211958215148,0,-0.000636091164258,0.00145854436616,0.4010489356,0.916055249038,-0.25941611412,-2.12264089571e-05,0.0,0,0,0.0727347599964
0,-1.71055902053,-0.218467883094,0,-0.000638699611949,0.00145568141614,0.402920766829,0.915233483168,-0.260400733181,1.73931106282e-05,0.0,0,0,0.123963383425
0,-1.71635363023,-0.224822792244,0,-0.00064265768678,0.00145123843727,0.404793140776,0.914406908372,-0.260805628566,1.136960358e-05,0.0,0,0,0.124182625971
0,-1.72213085157,-0.231211378161,0,-0.000646846101604,0.00144843551617,0.406664081985,0.913576383259,-0.261172480426,4.22677449202e-06,0.0,0,0,0.123827273519
0,-1.7280784781,-0.237823619877,0,-0.000654404971059,0.00145208437649,0.406752766167,0.913536890564,-0.260419581432,-8.76661928836e-05,0.0,0,0,-0.0408181285946
0,-1.73382829773,-0.244208086042,0,-0.00065688659933,0.00145406897425,0.406737360294,0.913543744943,-0.260294580209,1.48761727056e-06,0.0,0,0,-0.000516352664502
0,-1.7395736162,-0.250586437454,0,-0.000653668238052,0.0014530725554,0.406691232883,0.913564284763,-0.259718355344,4.97054371546e-05,0.0,0,0,-0.00743321126006
0,-1.74538038666,-0.257039576428,0,-0.000651170473572,0.00144992349033,0.407462647999,0.913220490454,-0.255272027284,4.87195371045e-05,0.0,0,0,0.0718064948245
0,-1.75102563635,-0.263351708496,0,-0.000654456913807,0.00144964738165,0.409226916212,0.912431258373,-0.259756389252,-4.54084891527e-05,0.0,0,0,0.139990633547
0,-1.75673252495,-0.2697915637,0,-0.000658344961301,0.00145110607056,0.411419582791,0.911444670712,-0.260849944824,3.41309778112e-05,0.0,0,0,0.147295720499
0,-1.76244510247,-0.276286912417,0,-0.000653945287277,0.00144454358994,0.412072525729,0.911149668929,-0.24789348066,0.000143622958408,0.0,0,0,-0.0430866575353
0,-1.76787453827,-0.282449134253,0,-0.000654605957461,0.00144300049032,0.411635925839,0.911346999666,-0.249531003942,0.000118478110467,0.0,0,0,-0.0312869614483
0,-1.77337962554,-0.288687021172,0,-0.000655092623976,0.00144117128847,0.410905171917,0.911676715493,-0.255226297245,3.32921758112e-05,0.0,0,0,-0.0707540633078
0,-1.77919977553,-0.295264714448,0,-0.000651156516763,0.00144991528344,0.410610980272,0.911809243549,-0.259244598287,8.84281504271e-07,0.0,0,0,-0.013922985491
0,-1.78488166925,-0.301684141719,0,-0.000653094336833,0.00144699051162,0.410662487582,0.911786050003,-0.259994183841,1.48784464431e-05,0.0,0,0,0.00404319650591
0,-1.7905722171,-0.308115091092,0,-0.000656138748352,0.00144729532413,0.410721547692,0.911759444744,-0.260380457294,9.64435325654e-06,0.0,0,0,0.00372471962698
0,-1.7964254849,-0.31474427226,0,-0.000659174030298,0.0014468605528,0.411942880725,0.911208283053,-0.260428048318,5.04044107024e-05,0.0,0,0,0.0893562520967
0,-1.80210437971,-0.321218835328,0,-0.000666127880251,0.00144809095536,0.413599239507,0.910457647772,-0.2609743854,1.69886509341e-05,0.0,0,0,0.109645163045
0,-1.80774535852,-0.327699325657,0,-0.000670693187213,0.00144862786072,0.415168110774,0.909743310745,-0.259684519783,8.52146490563e-05,0.0,0,0,0.0990538864418
0,-1.81353223645,-0.334387964498,0,-0.000674004775455,0.00144868574257,0.416320352962,0.909216591763,-0.260173645094,-5.62000429614e-05,0.0,0,0,0.0726239591905
0,-1.81913094988,-0.340893350166,0,-0.000669272685376,0.00144643649635,0.417384932151,0.908728385332,-0.2600745679,-3.54599867406e-05,0.0,0,0,0.0703517988151
0,-1.82471707712,-0.347413391955,0,-0.00066784627893,0.00144708524638,0.418457834051,0.908234827039,-0.260327627993,3.42275504383e-05,0.0,0,0,0.0730604090209
0,-1.83041849836,-0.354087859529,0,-0.000666263542565,0.0014389849102,0.418606075228,0.908166526138,-0.258871290852,-5.96205661813e-06,0.0,0,0,-0.00599395331909
0,-1.83594970446,-0.360556532217,0,-0.000662977498821,0.00145036782938,0.41848266039,0.908223386534,-0.25744389594,3.79711608954e-05,0.0,0,0,-0.00433356055155
0,-1.84149562644,-0.367043519237,0,-0.000661972891092,0.00145247439616,0.418318758432,0.908298887181,-0.259586691453,1.98205524176e-05,0.0,0,0,-0.0156080027767
0,-1.84723466441,-0.37376197115,0,-0.000664325704816,0.00144365791498,0.419074283386,0.907950560068,-0.25977095286,1.74949520819e-05,0.0,0,0,0.0583171947217
0,-1.8527960027,-0.380297847617,0,-0.000666930430056,0.0014417703083,0.419942802613,0.907549182709,-0.260301679727,2.59448750745e-05,0.0,0,0,0.0579515979655
0,-1.85835384585,-0.386854596274,0,-0.000671410467562,0.00144050546136,0.420805444728,0.907149520112,-0.260591349681,2.47005366567e-05,0.0,0,0,0.0572849642602
0,-1.86407054098,-0.393627855148,0,-0.000677223065006,0.00144097688739,0.421889220936,0.906645989465,-0.260686905876,2.92701643854e-05,0.0,0,0,0.0695984816665
0,-1.86959765984,-0.40020684025,0,-0.00068228026702,0.00144170096282,0.422883246576,0.906182771717,-0.260033666377,3.673400094e-05,0.0,0,0,0.0631850499669
0,-1.87509075733,-0.406772132253,0,-0.000689770162858,0.00144355830915,0.423748440409,0.905778504717,-0.259074073116,7.0889884885e-05,0.0,0,0,0.0551305332361
0,-1.8807396294,-0.413555671514,0,-0.00068447995625,0.00144017773001,0.424790411367,0.905290320166,-0.259926880387,-2.61398069195e-05,0.0,0,0,0.0681800069481
0,-1.88621471876,-0.420161657735,0,-0.000681584146265,0.00143894423708,0.425802050631,0.90481494161,-0.260071407381,-2.20111678471e-05,0.0,0,0,0.0672192775763
0,-1.89168138622,-0.426786077581,0,-0.000680341863987,0.00143962259825,0.426828019098,0.904331414214,-0.260395305027,2.40624671309e-05,0.0,0,0,0.0697910688286
0,-1.89729092769,-0.433603700932,0,-0.000677746587862,0.00144116128506,0.427038724309,0.904231934657,-0.260207644949,2.28787651383e-05,0.0,0,0,0.00562476338647
0,-1.90272944345,-0.440215410937,0,-0.000677017707686,0.00144310429821,0.427223383484,0.904144700643,-0.25870717086,8.21940707905e-05,0.0,0,0,0.0186289920596
0,-1.90815909831,-0.446824510039,0,-0.000676772968254,0.00144668782023,0.427468359277,0.904028899366,-0.259931433825,7.16592362735e-05,0.0,0,0,0.013212155271
0,-1.91377124381,-0.453678192995,0,-0.000680143971684,0.00143870453636,0.428774089241,0.90341034305,-0.260243672832,-2.27576490468e-05,0.0,0,0,0.0976348233845
0,-1.91919807284,-0.460353749962,0,-0.000684255833603,0.00143551273144,0.430539460163,0.902570354233,-0.260843061057,7.10089579223e-06,0.0,0,0,0.119474520385
0,-1.92460270814,-0.467056471975,0,-0.000689055370431,0.00143232727659,0.432305640612,0.901725738091,-0.260965960363,1.31568520623e-05,0.0,0,0,0.117909535593
0,-1.93016825624,-0.47399814652,0,-0.000703374961978,0.00143699330544,0.432788315902,0.90149415635,-0.260016780683,-3.10526715908e-05,0.0,0,0,-0.00305830364514
0,-1.93551714375,-0.480672710616,0,-0.00069085986943,0.00142954951257,0.433058582023,0.901364378948,-0.259136768226,0.000127243080123,0.0,0,0,0.017505471614
0,-1.94085136503,-0.487335632641,0,-0.000706903078628,0.00143729300215,0.433250639205,0.901272055545,-0.259279692714,-2.12835801154e-05,0.0,0,0,0.0163247115422
0,-1.94636733735,-0.494230144967,0,-0.000695789407301,0.00143380118398,0.433004306326,0.901390443035,-0.25968718528,-4.28409015642e-05,0.0,0,0,-0.0191911216196
0,-1.95172633603,-0.500919961359,0,-0.000690483934206,0.0014334140456,0.432710742827,0.901531409102,-0.259811821728,-2.38904015844e-05,0.0,0,0,-0.0200021716156
0,-1.95709377804,-0.507610390587,0,-0.000686998046852,0.00143530069082,0.432429541265,0.901666323973,-0.259945046013,8.22519887508e-06,0.0,0,0,-0.0176113655877
0,-1.96247315982,-0.514299355441,0,-0.000684915070781,0.00143611357806,0.43196005024,0.901891336839,-0.249275656956,4.55045762227e-05,0.0,0,0,-0.0159258981785
0,-1.96758730365,-0.520649875914,0,-0.00068295170615,0.00144672697108,0.431756167132,0.901988942671,-0.246021980348,-4.03534108748e-06,0.0,0,0,-0.00568071396866
0,-1.97268074306,-0.526976183215,0,-0.000682897134707,0.0014464851883,0.431679492347,0.90202564111,-0.246714590241,1.69639553e-05,0.0,0,0,-0.00782310220254
0,-1.97811007682,-0.533720485495,0,-0.000686307189836,0.00143313524767,0.432073646218,0.901836925031,-0.259101379894,2.65208459485e-05,0.0,0,0,0.0156638654841
0,-1.98348258182,-0.54040253586,0,-0.000688113287342,0.00143422725818,0.432087294251,0.901830382965,-0.259998034743,7.60462405952e-06,0.0,0,0,0.000546517689416
0,-1.9888610505,-0.547092135521,0,-0.000691983244794,0.00143376124871,0.43208244281,0.901832705164,-0.260170525482,3.28949753126e-06,0.0,0,0,-0.00106102309404
0,-1.99437971005,-0.553971852006,0,-0.000691261783001,0.00143037956033,0.433374930805,0.90121231989,-0.261308191639,8.55371336509e-05,0.0,0,0,0.111278724799
0,-1.99974294871,-0.560706717228,0,-0.000702966995735,0.00143346810434,0.434980889798,0.900438269132,-0.260292009625,6.98483248404e-06,0.0,0,0,0.103129572422
0,-2.00506233485,-0.567432081723,0,-0.00070822737279,0.00143359987547,0.436458105864,0.899723160217,-0.260015058165,-5.51706413804e-05,0.0,0,0,0.0998044544559
0,-2.01054571561,-0.574399565347,0,-0.000702720876586,0.00143073927657,0.43693018309,0.899494010138,-0.260656037185,-1.95421199646e-05,0.0,0,0,0.0191523808059
0,-2.01584437187,-0.581139676128,0,-0.000698134541701,0.00142971016386,0.437128823611,0.899397498387,-0.259868260791,1.66858515484e-05,0.0,0,0,0.0126732411335
0,-2.02114437729,-0.58788731551,0,-0.000695110134142,0.00143090409626,0.437327605983,0.899300858657,-0.260078353246,1.14506763991e-05,0.0,0,0,0.0141509667428
0,-2.02661385034,-0.594846649833,0,-0.000692592628073,0.00143370557439,0.436694489663,0.899608463445,-0.260913181785,-5.07763288712e-05,0.0,0,0,-0.047296863022
0,-2.03192290827,-0.601577489949,0,-0.00069111149975,0.00143185440378,0.435858622459,0.900013740665,-0.25939447784,6.52809454086e-05,0.0,0,0,-0.0521695277614
0,-2.03722059187,-0.608267850111,0,-0.000689321722092,0.00144128899789,0.435186288633,0.900339014876,-0.258719804204,-3.73740494393e-05,0.0,0,0,-0.0452736201342
0,-2.04272934845,-0.615221578195,0,-0.000691213525169,0.00143435853444,0.43574945471,0.90006659618,-0.261115535529,8.9500595595e-06,0.0,0,0,0.0559886434511
0,-2.04804696542,-0.621959343905,0,-0.000694663748336,0.0014308026202,0.436516369049,0.899694909288,-0.260139144759,-5.43492460423e-06,0.0,0,0,0.0518896571886
0,-2.05335781605,-0.628710505613,0,-0.000699153876656,0.00143040606963,0.43726433992,0.89933161968,-0.260342015359,2.43336766841e-05,0.0,0,0,0.0494755322203
0,-2.05881704397,-0.635670392079,0,-0.000704661147213,0.00143052828712,0.437763763025,0.899088619004,-0.260001441839,3.99106233716e-05,0.0,0,0,0.0300949988852
0,-2.06409992601,-0.642417335261,0,-0.000705370746335,0.00142941995883,0.438157012948,0.898897041499,-0.259088183996,6.79201527506e-05,0.0,0,0,0.0214861136256
0,-2.06936634329,-0.649153419631,0,-0.000714308132158,0.00143314449924,0.438462589038,0.898748014671,-0.259902678264,1.99166653891e-06,0.0,0,0,0.0248458930327
0,-2.07479376415,-0.656115106976,0,-0.000705859114661,0.00142793546595,0.439175065223,0.898400091746,-0.259718986721,-5.19586646056e-06,0.0,0,0,0.0465365111702
0,-2.08005522945,-0.662886099822,0,-0.000702527403721,0.00142636502536,0.439856328327,0.898066747168,-0.259995218681,-7.28586218737e-06,0.0,0,0,0.0454813027867
0,-2.08531401286,-0.669674003885,0,-0.000700850120941,0.00142741075539,0.440539314684,0.89773191072,-0.26035111638,1.2787522697e-05,0.0,0,0,0.0471202485424
0,-2.09072133333,-0.676663889807,0,-0.000698757407441,0.00143038733613,0.440390552546,0.897804893592,-0.260058606021,-3.16706008821e-05,0.0,0,0,-0.0144253027754
0,-2.09597432025,-0.683447767049,0,-0.000698244178507,0.00142913632655,0.440206988943,0.89789491418,-0.259722366075,-9.68746568686e-06,0.0,0,0,-0.00887119011735
0,-2.10120893596,-0.690200927887,0,-0.000697278695447,0.00143691648539,0.440176396119,0.897909900476,-0.258773600804,-6.81918782977e-06,0.0,0,0,-0.000206064427473
0,-2.10666548963,-0.697262645655,0,-0.00070252954234,0.00142439625263,0.441873464066,0.897075983015,-0.262298107607,3.16450062029e-05,0.0,0,0,0.174632797215
0,-2.11189336284,-0.704095071634,0,-0.000704721134875,0.00142780911319,0.443718944695,0.896164584688,-0.260737854965,1.80305062083e-05,0.0,0,0,0.116727470676
0,-2.11709694149,-0.710948440183,0,-0.000711320888594,0.00142454663711,0.445428278084,0.895316208818,-0.260735240307,6.98754697906e-05,0.0,0,0,0.114419107104
0,-2.12249987274,-0.718103625804,0,-0.000717815379623,0.00142403034526,0.445753497486,0.895154331028,-0.265003894944,3.45564488469e-07,0.0,0,0,-0.0299713872191
0,-2.12779233879,-0.725099108824,0,-0.000709849167987,0.00142030174771,0.444901191661,0.895578253709,-0.264832724136,-7.30666746049e-05,0.0,0,0,-0.0674148120739
0,-2.13302338007,-0.731979774009,0,-0.000706829424454,0.00142114115603,0.443597130582,0.896224897271,-0.258714520828,6.31605383182e-05,0.0,0,0,-0.109900783604
0,-2.13828438537,-0.738867567012,0,-0.000703517024271,0.00141911302044,0.443680685029,0.896183541979,-0.255527279889,-9.14296655272e-06,0.0,0,0,0.0802042057968
0,-2.14346961889,-0.74568611094,0,-0.000710957293122,0.00142237022333,0.444694578059,0.895680860378,-0.260268020454,1.6985826936e-05,0.0,0,0,0.0686402279487
0,-2.14865705756,-0.75253845895,0,-0.00070906728583,0.00142221631393,0.445713310438,0.89517435141,-0.260585991019,9.51864064766e-06,0.0,0,0,0.0693699715911
0,-2.15398787727,-0.759607056951,0,-0.000708181183016,0.00142443433735,0.446346941742,0.894858579365,-0.260370098004,4.86660601378e-05,0.0,0,0,0.0424075166792
0,-2.15915033839,-0.766470388071,0,-0.000708765534951,0.00142597089131,0.447011420744,0.894526832455,-0.260021599149,4.89705992592e-05,0.0,0,0,0.0482185392592
0,-2.16428499245,-0.773320088417,0,-0.000709506346883,0.00142829155653,0.447813431137,0.894125599386,-0.258877542587,7.92075878558e-05,0.0,0,0,0.0594391465903
0,-2.16958900995,-0.780428011839,0,-0.000711858249242,0.00143026540022,0.448756920636,0.893652434552,-0.262419036147,2.4256092046e-05,0.0,0,0,0.0535163086758
0,-2.1747194177,-0.787319318501,0,-0.000716248620982,0.00142373773323,0.448602215882,0.893730111311,-0.26009251383,-3.31657376365e-05,0.0,0,0,-0.0288626193195
0,-2.17984598609,-0.794194516349,0,-0.000719701649792,0.00142304961563,0.448256658854,0.893903476194,-0.259853950472,1.55706326621e-05,0.0,0,0,-0.0242811715587
0,-2.18513589191,-0.801264222276,0,-0.000719771215171,0.00142294373302,0.447329564847,0.894367775345,-0.259083990353,0.000166890438127,0.0,0,0,-0.0682929492456
0,-2.19026668008,-0.808086458147,0,-0.000719536250219,0.00142333664115,0.446248984538,0.89490742548,-0.258096705256,0.000112199617487,0.0,0,0,-0.0782746900608
0,-2.19541333716,-0.814899130374,0,-0.00071644467872,0.00142379896331,0.445135690447,0.895461711406,-0.259022368002,3.36693636821e-06,0.0,0,0,-0.074890656433
0,-2.20073027229,-0.821911704881,0,-0.000712840445853,0.00142310075317,0.444739784758,0.895658411726,-0.259608220631,5.23877769465e-06,0.0,0,0,-0.0182069370466
0,-2.20591241886,-0.828738672723,0,-0.000708057180417,0.00142258774586,0.444465635804,0.895794492888,-0.259920484487,-2.35604822287e-05,0.0,0,0,-0.0187379117508
0,-2.21110519676,-0.835571192396,0,-0.000705248726886,0.00142458448504,0.444202158693,0.895925172877,-0.260134930668,5.80355164193e-06,0.0,0,0,-0.0168470739226
0,-2.21645530383,-0.842587926253,0,-0.000702711786013,0.00142862323112,0.443070757244,0.896485230948,-0.259712775483,-7.23774748074e-05,0.0,0,0,-0.078801528284
0,-2.22166785262,-0.849381678671,0,-0.000700996750419,0.00142755863855,0.441955525338,0.897035553533,-0.259207848931,5.78672945361e-05,0.0,0,0,-0.0709450556043
0,-2.2268728877,-0.856136545251,0,-0.000699175172465,0.00143602999043,0.441013171997,0.897499209524,-0.258316725343,-1.78451917549e-05,0.0,0,0,-0.0622847070713
0,-2.23229492668,-0.863164307709,0,-0.00070141201751,0.00142616176826,0.4416320448,0.897194856812,-0.260160883383,-1.09887765384e-06,0.0,0,0,0.0863665198525
0,-2.23751975162,-0.869966770454,0,-0.000705417819895,0.00142702740985,0.442449615591,0.896791951147,-0.260078570077,-9.88488019354e-07,0.0,0,0,0.0529363133597
0,-2.24273891245,-0.876784756169,0,-0.000710159454532,0.00142686320587,0.443208888082,0.896416946103,-0.260203380116,3.5698754986e-05,0.0,0,0,0.0501186709919
0,-2.24811156115,-0.883820906056,0,-0.000712718762499,0.00142540502897,0.443384529958,0.896330083645,-0.260212100523,3.2045175582e-05,0.0,0,0,0.00620940132695
